{
  "hotels": [
    {
      "ChainCode": "ES",
      "IataCode": "BOS",
      "DupeId": 700066550,
      "Name": "EMBASSY STES BOSTON LOGAN ARPT",
      "Id": "ESBOS207",
      "Latitude": 42.37048,
      "Longitude": -71.03187,
      "CountryCode": "US",
      "Distance": 1.29,
      "Unit": "KM"
    },
    {
      "ChainCode": "CY",
      "IataCode": "BOS",
      "DupeId": 700008332,
      "Name": "COURTYARD LOGAN ARPT MARRIOTT",
      "Id": "CYBOSLAC",
      "Latitude": 42.38774,
      "Longitude": -71.01752,
      "CountryCode": "US",
      "Distance": 2.49,
      "Unit": "KM"
    },
    {
      "ChainCode": "XL",
      "IataCode": "BOS",
      "DupeId": 700012479,
      "Name": "SEAPORT BOSTON HOTEL SUMMIT",
      "Id": "XLBOSSEA",
      "Latitude": 42.35074,
      "Longitude": -71.04098,
      "CountryCode": "US",
      "Distance": 2.5,
      "Unit": "KM"
    },
    {
      "ChainCode": "UZ",
      "IataCode": "BOS",
      "DupeId": 700174780,
      "Name": "EXECUSTAY AT PARK LANE",
      "Id": "UZBOSPL1",
      "Latitude": 42.34786,
      "Longitude": -71.03797,
      "CountryCode": "US",
      "Distance": 2.55,
      "Unit": "KM"
    },
    {
      "ChainCode": "TO",
      "IataCode": "BOS",
      "DupeId": 700883554,
      "Name": "TOWNEPLACE STES ARPT MARRIOTT",
      "Id": "TOBOSCLT",
      "Latitude": 42.3879,
      "Longitude": -71.02363,
      "CountryCode": "US",
      "Distance": 2.56,
      "Unit": "KM"
    },
    {
      "ChainCode": "LW",
      "IataCode": "BOS",
      "DupeId": 700106082,
      "Name": "BATTERY WHARF HOTEL, BOSTON",
      "Id": "LWBOS751",
      "Latitude": 42.36649,
      "Longitude": -71.05125,
      "CountryCode": "US",
      "Distance": 2.75,
      "Unit": "KM"
    },
    {
      "ChainCode": "MC",
      "IataCode": "BOS",
      "DupeId": 700068895,
      "Name": "BOSTON MARRIOTT LONG WHARF",
      "Id": "MCBOSLWM",
      "Latitude": 42.36018,
      "Longitude": -71.05079,
      "CountryCode": "US",
      "Distance": 2.77,
      "Unit": "KM"
    },
    {
      "ChainCode": "PH",
      "IataCode": "BOS",
      "DupeId": 700035448,
      "Name": "BOSTON HARBOR HOTEL PREFERRED",
      "Id": "PHBOSHHL",
      "Latitude": 42.3563,
      "Longitude": -71.05024,
      "CountryCode": "US",
      "Distance": 2.85,
      "Unit": "KM"
    },
    {
      "ChainCode": "UI",
      "IataCode": "BOS",
      "DupeId": 700066912,
      "Name": "THE HARBORSIDE INN",
      "Id": "UIBOS428",
      "Latitude": 42.3594,
      "Longitude": -71.05292,
      "CountryCode": "US",
      "Distance": 2.96,
      "Unit": "KM"
    },
    {
      "ChainCode": "IC",
      "IataCode": "BOS",
      "DupeId": 700038482,
      "Name": "INTERCONTINENTAL HOTEL",
      "Id": "ICBOSICA",
      "Latitude": 42.35439,
      "Longitude": -71.05292,
      "CountryCode": "US",
      "Distance": 3.13,
      "Unit": "KM"
    },
    {
      "ChainCode": "UZ",
      "IataCode": "BOS",
      "DupeId": 700174781,
      "Name": "OAKWOOD AT THE LOFTS ATLANTIC",
      "Id": "UZBOS530",
      "Latitude": 42.35389,
      "Longitude": -71.05298,
      "CountryCode": "US",
      "Distance": 3.16,
      "Unit": "KM"
    },
    {
      "ChainCode": "UZ",
      "IataCode": "BOS",
      "DupeId": 700024879,
      "Name": "THE CONSTITUTION INN",
      "Id": "UZBOS174",
      "Latitude": 42.3764,
      "Longitude": -71.05341,
      "CountryCode": "US",
      "Distance": 3.18,
      "Unit": "KM"
    },
    {
      "ChainCode": "MU",
      "IataCode": "BOS",
      "DupeId": 700039966,
      "Name": "MILLENNIUM BOSTONIAN HOTEL",
      "Id": "MUBOSSBH",
      "Latitude": 42.36079,
      "Longitude": -71.05603,
      "CountryCode": "US",
      "Distance": 3.18,
      "Unit": "KM"
    },
    {
      "ChainCode": "AC",
      "IataCode": "PAR",
      "DupeId": 700140792,
      "Name": "LE NOTRE DAME",
      "Id": "ACPAR419",
      "Latitude": 48.85306,
      "Longitude": 2.34654,
      "CountryCode": "FR",
      "Distance": 0.17,
      "Unit": "KM"
    },
    {
      "ChainCode": "AC",
      "IataCode": "PAR",
      "DupeId": 700058597,
      "Name": "DE NOTRE DAME",
      "Id": "ACPAR243",
      "Latitude": 48.85038,
      "Longitude": 2.3494,
      "CountryCode": "FR",
      "Distance": 0.33,
      "Unit": "KM"
    },
    {
      "ChainCode": "BW",
      "IataCode": "PAR",
      "DupeId": 700054608,
      "Name": "BW PREMIER ROYAL SAINT MICHEL",
      "Id": "BWPAR599",
      "Latitude": 48.85269,
      "Longitude": 2.34384,
      "CountryCode": "FR",
      "Distance": 0.37,
      "Unit": "KM"
    },
    {
      "ChainCode": "AC",
      "IataCode": "PAR",
      "DupeId": 700029537,
      "Name": "ABBATIAL SAINT GERMAIN",
      "Id": "ACPARABA",
      "Latitude": 48.84973,
      "Longitude": 2.35061,
      "CountryCode": "FR",
      "Distance": 0.42,
      "Unit": "KM"
    },
    {
      "ChainCode": "FG",
      "IataCode": "PAR",
      "DupeId": 505296841,
      "Name": "FG TEST PROPERTY",
      "Id": "FGPARLAN",
      "Latitude": 48.8569,
      "Longitude": 2.35085,
      "CountryCode": "FR",
      "Distance": 0.42,
      "Unit": "KM"
    },
    {
      "ChainCode": "RT",
      "IataCode": "PAR",
      "DupeId": 505297506,
      "Name": "ANITHAA PROPERTY",
      "Id": "RTPARZYW",
      "Latitude": 48.8569,
      "Longitude": 2.35085,
      "CountryCode": "FR",
      "Distance": 0.42,
      "Unit": "KM"
    },
    {
      "ChainCode": "RT",
      "IataCode": "PAR",
      "DupeId": 505298504,
      "Name": "ANITHAA PROPERTY",
      "Id": "RTPARAYU",
      "Latitude": 48.8569,
      "Longitude": 2.35085,
      "CountryCode": "FR",
      "Distance": 0.42,
      "Unit": "KM"
    },
    {
      "ChainCode": "RT",
      "IataCode": "PAR",
      "DupeId": 700009189,
      "Name": "MERCURE PARIS NOTRE DAME",
      "Id": "RTPARDAM",
      "Latitude": 48.85025,
      "Longitude": 2.3452,
      "CountryCode": "FR",
      "Distance": 0.43,
      "Unit": "KM"
    },
    {
      "ChainCode": "AC",
      "IataCode": "PAR",
      "DupeId": 700092050,
      "Name": "RELAIS HOTEL DU VIEUX PARIS",
      "Id": "ACPARC06",
      "Latitude": 48.85376,
      "Longitude": 2.34289,
      "CountryCode": "FR",
      "Distance": 0.44,
      "Unit": "KM"
    },
    {
      "ChainCode": "OI",
      "IataCode": "PAR",
      "DupeId": 700092051,
      "Name": "HOTEL RESIDENCE DES ARTS",
      "Id": "OIPARRDA",
      "Latitude": 48.85351,
      "Longitude": 2.34245,
      "CountryCode": "FR",
      "Distance": 0.47,
      "Unit": "KM"
    },
    {
      "ChainCode": "OI",
      "IataCode": "PAR",
      "DupeId": 700006438,
      "Name": "HOTEL VILLA D ESTREES",
      "Id": "OIPARVDE",
      "Latitude": 48.85337,
      "Longitude": 2.34233,
      "CountryCode": "FR",
      "Distance": 0.48,
      "Unit": "KM"
    },
    {
      "ChainCode": "HI",
      "IataCode": "PAR",
      "DupeId": 700132326,
      "Name": "HOLIDAY INN PARIS-NOTRE DAME",
      "Id": "HIPARC12",
      "Latitude": 48.85271,
      "Longitude": 2.34235,
      "CountryCode": "FR",
      "Distance": 0.48,
      "Unit": "KM"
    },
    {
      "ChainCode": "KY",
      "IataCode": "PAR",
      "DupeId": 700005648,
      "Name": "HOTEL CALIFORNIA SAINT GERMAIN",
      "Id": "KYPARCSG",
      "Latitude": 48.84908,
      "Longitude": 2.34717,
      "CountryCode": "FR",
      "Distance": 0.49,
      "Unit": "KM"
    },
    {
      "ChainCode": "WW",
      "IataCode": "PAR",
      "DupeId": 700018106,
      "Name": "VILLA PANTHEON",
      "Id": "WWPARVLP",
      "Latitude": 48.84917,
      "Longitude": 2.34615,
      "CountryCode": "FR",
      "Distance": 0.5,
      "Unit": "KM"
    },
    {
      "ChainCode": "UI",
      "IataCode": "PAR",
      "DupeId": 700161096,
      "Name": "HOTEL ATMOSPHERES",
      "Id": "UIPAR803",
      "Latitude": 48.84874,
      "Longitude": 2.34807,
      "CountryCode": "FR",
      "Distance": 0.51,
      "Unit": "KM"
    },
    {
      "ChainCode": "AC",
      "IataCode": "PAR",
      "DupeId": 700158044,
      "Name": "HOTEL SAINT-JACQUES",
      "Id": "ACPARD49",
      "Latitude": 48.84875,
      "Longitude": 2.34763,
      "CountryCode": "FR",
      "Distance": 0.51,
      "Unit": "KM"
    },
    {
      "ChainCode": "XK",
      "IataCode": "PAR",
      "DupeId": 501107986,
      "Name": "THE DEMO HOTEL",
      "Id": "XKPAR321",
      "Latitude": 48.85821,
      "Longitude": 2.34654,
      "CountryCode": "",
      "Distance": 0.56,
      "Unit": "KM"
    },
    {
      "ChainCode": "UI",
      "IataCode": "PAR",
      "DupeId": 700005188,
      "Name": "BELLOY SAINT GERMAIN",
      "Id": "UIPAR506",
      "Latitude": 48.85032,
      "Longitude": 2.34252,
      "CountryCode": "FR",
      "Distance": 0.57,
      "Unit": "KM"
    },
    {
      "ChainCode": "AC",
      "IataCode": "PAR",
      "DupeId": 700061090,
      "Name": "RESIDENCE HENRI IV",
      "Id": "ACPAR346",
      "Latitude": 48.84817,
      "Longitude": 2.34907,
      "CountryCode": "FR",
      "Distance": 0.57,
      "Unit": "KM"
    },
    {
      "ChainCode": "AC",
      "IataCode": "PAR",
      "DupeId": 700870375,
      "Name": "DU LOIRET",
      "Id": "ACPARE67",
      "Latitude": 48.85693,
      "Longitude": 2.35526,
      "CountryCode": "FR",
      "Distance": 0.61,
      "Unit": "KM"
    },
    {
      "ChainCode": "ES",
      "IataCode": "BOS",
      "DupeId": 700066550,
      "Name": "EMBASSY STES BOSTON LOGAN ARPT",
      "Id": "ESBOS207",
      "Latitude": 42.37048,
      "Longitude": -71.03187,
      "CountryCode": "US",
      "Distance": 1.29,
      "Unit": "KM"
    },
    {
      "ChainCode": "",
      "IataCode": "",
      "DupeId": "",
      "Name": "Cathédrale Notre-Dame de Paris",
      "Id": "AA8E41776E",
      "Latitude": 48.852966,
      "Longitude": 2.349902,
      "CountryCode": "FR",
      "Distance": "",
      "Unit": "KM"
    },
    {
      "ChainCode": "",
      "IataCode": "",
      "DupeId": "",
      "Name": "Jardin du Luxembourg",
      "Id": "13D98F7D12",
      "Latitude": 48.84681,
      "Longitude": 2.337546,
      "CountryCode": "FR",
      "Distance": "",
      "Unit": "KM"
    },
    {
      "ChainCode": "",
      "IataCode": "",
      "DupeId": "",
      "Name": "Centre Pompidou",
      "Id": "EC7AE15DF5",
      "Latitude": 48.860825,
      "Longitude": 2.352633,
      "CountryCode": "FR",
      "Distance": "",
      "Unit": "KM"
    },
    {
      "ChainCode": "",
      "IataCode": "",
      "DupeId": "",
      "Name": "Basilique du Sacré-Cœur de Montmartre",
      "Id": "521DE91E65",
      "Latitude": 48.88672,
      "Longitude": 2.343002,
      "CountryCode": "FR",
      "Distance": "",
      "Unit": "KM"
    },
    {
      "ChainCode": "",
      "IataCode": "",
      "DupeId": "",
      "Name": "Jardin des Tuileries",
      "Id": "7CBD79F4BD",
      "Latitude": 48.864246,
      "Longitude": 2.324892,
      "CountryCode": "FR",
      "Distance": "",
      "Unit": "KM"
    }
  ]
}